City,Lat,Lng,Max Temp,Humidity,Cloudiness,Wind Speed,Country,Date
Port Alfred,-33.5906,26.891,53.44,47,1,10.29,ZA,1627177551
Butaritari,3.0707,172.7902,83.95,72,13,12.24,KI,1627177535
Hilo,19.7297,-155.09,80.33,85,90,8.05,US,1627177580
Severo-Kuril'sk,50.6789,156.125,57.61,89,98,2.15,RU,1627177581
Bengkulu,-3.8004,102.2655,81.73,67,1,1.21,ID,1627177581
Saskylakh,71.9167,114.0833,69.98,58,99,6.15,RU,1627177582
Kismayo,-0.3582,42.5454,76.19,76,69,21.12,SO,1627177582
San Jose,37.3394,-121.895,92.71,47,40,11.5,US,1627177208
Kumul,42.8,93.45,93.81,14,89,9.84,CN,1627177582
Dawlatabad,36.4141,64.9053,88.11,13,0,8.61,AF,1627177583
Dubna,56.7333,37.1667,56.28,61,100,2.48,RU,1627177583
George Town,5.4112,100.3354,84.88,86,20,3.0,MY,1627177364
Vao,-22.6667,167.4833,72.14,81,14,8.32,NC,1627177391
Jamestown,42.097,-79.2353,72.99,85,1,8.01,US,1627177420
Norman Wells,65.282,-126.8329,69.84,35,75,10.36,CA,1627177584
Ushuaia,-54.8,-68.3,37.06,87,75,4.61,AR,1627177503
Kita,13.0349,-9.4895,73.47,91,63,4.0,ML,1627177585
Iqaluit,63.7506,-68.5145,44.33,87,75,8.05,CA,1627177585
Hong Kong,22.2855,114.1577,89.33,83,50,1.01,HK,1627177585
Luoyang,34.6836,112.4536,83.86,71,1,1.14,CN,1627177359
Ostrovnoy,68.0531,39.5131,45.55,88,100,22.53,RU,1627177586
Frutal,-20.0247,-48.9406,64.99,42,0,7.27,BR,1627177587
Tiksi,71.6872,128.8694,44.73,76,87,5.26,RU,1627177587
Liepāja,56.5419,21.0367,57.25,87,9,4.61,LV,1627177527
Sola,-13.8833,167.55,80.51,75,40,9.57,VU,1627177588
Bluff,-46.6,168.3333,50.81,69,100,9.57,NZ,1627177588
Rikitea,-23.1203,-134.9692,69.37,55,0,1.03,PF,1627177589
Fort Nelson,58.8053,-122.7002,72.99,35,40,12.66,CA,1627177589
Mahébourg,-20.4081,57.7,70.09,78,40,8.05,MU,1627177589
Saint George,37.1041,-113.5841,86.32,53,1,1.01,US,1627177590
Pisco,-13.7,-76.2167,62.65,77,40,12.66,PE,1627177538
Airai,-8.9266,125.4092,75.49,22,14,3.27,TL,1627177590
Nikolskoye,59.7035,30.7861,57.79,56,100,4.97,RU,1627177591
La Asuncion,11.0333,-63.8628,69.53,100,100,10.36,VE,1627177495
Ancud,-41.8697,-73.8203,36.93,81,100,3.09,CL,1627177591
Gwadar,25.1216,62.3254,82.29,82,46,9.55,PK,1627177592
Caravelas,-17.7125,-39.2481,68.41,67,3,5.77,BR,1627177592
Prince Rupert,54.3161,-130.3201,60.89,79,90,3.44,CA,1627177516
Marataizes,-21.0433,-40.8244,65.88,77,0,9.42,BR,1627177593
Anloga,5.7947,0.8973,75.42,79,89,11.3,GH,1627177371
Mataura,-46.1927,168.8643,50.49,78,92,4.32,NZ,1627177593
Belaya Gora,68.5333,146.4167,59.94,45,100,15.46,RU,1627177594
Assiniboia,49.6334,-105.9845,82.31,18,0,8.05,CA,1627177594
Albany,42.6001,-73.9662,72.25,67,100,1.01,US,1627177563
Padang,-0.9492,100.3543,82.45,65,51,0.58,ID,1627177595
Pevek,69.7008,170.3133,37.62,85,48,16.8,RU,1627177595
Hermanus,-34.4187,19.2345,50.9,51,100,5.37,ZA,1627177596
La Merced,5.4019,-75.8847,57.06,99,100,1.16,CO,1627177596
Tuktoyaktuk,69.4541,-133.0374,64.4,45,75,17.27,CA,1627177596
Los Llanos de Aridane,28.6585,-17.9182,69.12,72,40,12.66,ES,1627177590
Rawson,-43.3002,-65.1023,46.31,46,100,18.19,AR,1627177420
Vaini,-21.2,-175.2,80.76,83,20,8.05,TO,1627177597
Brae,60.3964,-1.353,55.31,82,99,4.81,GB,1627177598
Faanui,-16.4833,-151.75,78.76,67,19,10.45,PF,1627177598
Bethel,41.3712,-73.414,73.02,77,97,5.95,US,1627177598
Namatanai,-3.6667,152.4333,84.94,68,9,2.37,PG,1627177599
Cape Town,-33.9258,18.4232,53.11,81,100,2.3,ZA,1627177354
Punta Arenas,-53.15,-70.9167,39.31,81,75,14.97,CL,1627177599
Basirpur,30.5832,73.829,93.42,51,16,7.11,PK,1627177600
Swellendam,-34.0226,20.4417,39.58,35,27,4.72,ZA,1627177600
Bambous Virieux,-20.3428,57.7575,70.05,78,40,8.05,MU,1627177600
Urusha,54.05,122.9,63.45,89,100,3.49,RU,1627177601
Chara,56.9064,118.2631,60.69,80,100,3.85,RU,1627177601
Petropavlovsk-Kamchatskiy,53.0452,158.6483,70.39,68,20,11.18,RU,1627177601
Melilla,35.2937,-2.9383,82.78,24,0,12.66,ES,1627177602
Sandwick,60.0,-1.25,55.22,94,90,5.75,GB,1627177602
Barrow,71.2906,-156.7887,42.82,81,90,5.75,US,1627177504
Kapaa,22.0752,-159.319,85.98,79,90,5.01,US,1627177603
Hobart,-42.8794,147.3294,47.26,65,40,5.99,AU,1627177603
Yellowknife,62.456,-114.3525,57.72,44,40,6.91,CA,1627177516
Vestmannaeyjar,63.4427,-20.2734,51.13,81,54,11.81,IS,1627177604
Lebu,-37.6167,-73.65,50.94,85,96,23.55,CL,1627177604
Hithadhoo,-0.6,73.0833,81.84,77,88,10.2,MV,1627177604
Sibolga,1.7427,98.7792,83.21,65,82,0.25,ID,1627177456
Saint Paul Harbor,57.79,-152.4072,56.71,82,75,8.05,US,1627177527
Kayan,16.9056,96.5631,78.94,82,99,9.53,MM,1627177605
Alta Floresta,-9.8756,-56.0861,73.4,46,32,3.38,BR,1627177606
Portoferraio,42.8115,10.3146,78.17,81,14,22.1,IT,1627177606
Luchegorsk,46.4764,134.2569,89.55,46,100,8.21,RU,1627177606
Vila Franca do Campo,37.7167,-25.4333,72.01,91,63,6.89,PT,1627177607
Lábrea,-7.2586,-64.7981,80.85,58,92,2.26,BR,1627177607
Kitimat,54.0524,-128.6534,66.9,67,100,4.0,CA,1627177607
Lugovoy,42.9472,72.7644,84.29,21,0,3.42,KZ,1627177608
Atambua,-9.1061,124.8925,82.8,36,13,3.06,ID,1627177608
Bandarbeyla,9.4942,50.8122,79.99,59,33,24.05,SO,1627177609
Makubetsu,45.3714,141.8211,85.71,66,20,13.8,JP,1627177609
Luige,59.327,24.7752,55.96,82,0,2.3,EE,1627177609
Mīnāb,27.1467,57.0801,83.7,58,80,4.45,IR,1627177610
Humaitá,-7.5061,-63.0208,80.53,58,100,2.21,BR,1627177611
Upernavik,72.7868,-56.1549,39.4,85,6,3.11,GL,1627177611
Podgornoye,51.735,39.1496,53.82,87,0,0.0,RU,1627177612
Lebedinyy,58.5167,125.5167,63.61,76,100,7.02,RU,1627177612
Mount Gambier,-37.8333,140.7667,49.91,81,75,10.36,AU,1627177524
Mayumba,-3.432,10.6554,69.46,90,96,1.57,GA,1627177613
Ahipara,-35.1667,173.1667,59.45,78,100,16.2,NZ,1627177613
Tautira,-17.7333,-149.15,75.22,76,47,5.48,PF,1627177614
Tocopilla,-22.092,-70.1979,63.23,65,24,12.84,CL,1627177614
Guiratinga,-16.3494,-53.7583,67.64,48,0,3.96,BR,1627177614
Cayenne,4.9333,-52.3333,80.1,85,20,0.0,GF,1627177615
Mount Isa,-20.7333,139.5,67.77,22,8,12.66,AU,1627177615
Borogontsy,62.6683,131.1683,76.62,43,7,7.29,RU,1627177615
Tasiilaq,65.6145,-37.6368,42.96,97,100,2.86,GL,1627177316
Puerto Ayora,-0.7393,-90.3518,72.55,84,6,7.0,EC,1627177616
Port Hedland,-20.3167,118.5667,77.05,23,56,14.97,AU,1627177547
São João da Barra,-21.6403,-41.0511,68.97,72,0,12.5,BR,1627177617
Isangel,-19.55,169.2667,86.11,70,75,5.75,VU,1627177617
East London,-33.0153,27.9116,51.39,55,0,9.19,ZA,1627177618
Saint-Augustin,51.226,-58.6502,52.83,81,30,6.71,CA,1627177618
Shelburne,44.0787,-80.2041,68.79,100,79,18.03,CA,1627177618
Leningradskiy,69.3833,178.4167,36.61,96,100,6.78,RU,1627177619
Codrington,-38.2667,141.9667,48.22,80,100,17.74,AU,1627177619
Narsaq,60.9167,-46.05,44.82,91,94,4.21,GL,1627177620
Zaprudnya,56.5667,37.4333,57.83,57,100,1.63,RU,1627177620
Lorengau,-2.0226,147.2712,84.85,66,26,5.12,PG,1627177334
Huilong,31.8111,121.655,79.03,93,100,39.64,CN,1627177621
Ribeira Brava,32.65,-17.0667,73.0,79,0,2.95,PT,1627177621
Lavrentiya,65.5833,-171.0,44.87,98,100,11.63,RU,1627177342
Kampot,10.6167,104.1833,80.65,80,100,12.19,KH,1627177622
Saldanha,-33.0117,17.9442,46.45,47,100,10.71,ZA,1627177622
Taoudenni,22.6783,-3.9836,96.24,8,5,12.17,ML,1627177623
Navrongo,10.8956,-1.0921,75.69,78,74,5.79,GH,1627177623
Rocha,-34.4833,-54.3333,58.8,74,100,11.05,UY,1627177412
New Norfolk,-42.7826,147.0587,46.92,63,72,11.86,AU,1627177624
Riyadh,24.6877,46.7219,89.74,24,0,2.33,SA,1627177542
Makakilo City,21.3469,-158.0858,89.92,60,40,14.97,US,1627177624
Lagoa,39.05,-27.9833,68.45,84,96,16.6,PT,1627177625
Mar del Plata,-38.0023,-57.5575,52.88,60,90,13.0,AR,1627177625
Naze,28.3667,129.4833,81.52,90,100,20.8,JP,1627177625
Atuona,-9.8,-139.0333,78.39,70,16,17.27,PF,1627177536
Chhātāpur,26.2167,87.0167,83.8,80,53,6.98,IN,1627177626
Maragogi,-9.0122,-35.2225,74.19,84,85,15.86,BR,1627177626
Port Elizabeth,-33.918,25.5701,44.89,76,0,2.3,ZA,1627177627
Busselton,-33.65,115.3333,62.04,67,94,18.52,AU,1627177627
Praia da Vitória,38.7333,-27.0667,71.85,83,40,15.68,PT,1627177627
Zhalantun,48.0,122.7167,78.82,56,27,4.09,CN,1627177628
Revelstoke,50.9832,-118.2023,80.62,47,90,0.0,CA,1627177344
Blagoyevo,63.3667,47.9167,45.81,93,100,5.44,RU,1627177628
Morón,-34.6534,-58.6198,59.0,97,100,4.0,AR,1627177356
Arraial do Cabo,-22.9661,-42.0278,69.71,76,0,23.2,BR,1627177629
Gashua,12.871,11.0482,79.36,67,60,11.07,NG,1627177629
Praia,14.9215,-23.5087,75.74,69,75,6.91,CV,1627177616
Lovozero,68.005,35.0117,43.52,90,100,18.45,RU,1627177566
Fandriana,-20.2333,47.3833,50.47,98,100,3.47,MG,1627177630
Haines Junction,60.7522,-137.5108,60.75,51,100,5.75,CA,1627177631
Zhengjiatun,43.5064,123.5064,86.31,54,99,16.64,CN,1627177631
Samarai,-10.6167,150.6667,80.04,83,97,14.83,PG,1627177631
Falam,22.9167,93.6833,67.82,87,100,2.82,MM,1627177632
Fairbanks,64.8378,-147.7164,68.02,60,90,1.99,US,1627177615
Guerrero Negro,27.9769,-114.0611,70.34,80,100,15.08,MX,1627177632
Palmer,42.1584,-72.3287,72.21,70,100,4.56,US,1627177633
Nova Olímpia,-14.7972,-57.2881,74.8,44,0,4.36,BR,1627177633
Karachev,53.1229,34.9852,58.89,63,99,3.62,RU,1627177633
Pringsewu,-5.3582,104.9744,82.13,75,1,1.34,ID,1627177634
Comodoro Rivadavia,-45.8667,-67.5,44.46,57,0,4.61,AR,1627177362
Pacific Grove,36.6177,-121.9166,84.97,83,20,1.99,US,1627177530
Meulaboh,4.1363,96.1285,80.38,74,96,3.24,ID,1627177635
Kavieng,-2.5744,150.7967,84.24,71,11,7.76,PG,1627177635
Shingū,33.7333,135.9833,85.19,69,100,8.99,JP,1627177635
Lagos,6.5833,3.75,77.32,86,3,3.09,NG,1627177636
Chokurdakh,70.6333,147.9167,52.05,49,85,13.53,RU,1627177636
Thompson,55.7435,-97.8558,60.96,94,90,8.05,CA,1627177636
Najrān,17.4924,44.1277,79.45,44,9,3.47,SA,1627177637
Shenjiamen,29.9576,122.298,78.89,93,100,32.23,CN,1627177637
Paita,-5.0892,-81.1144,65.26,85,39,8.28,PE,1627177637
Husavik,66.0449,-17.3389,55.31,89,69,3.29,IS,1627177638
Huarmey,-10.0681,-78.1522,64.02,84,71,5.35,PE,1627177638
Uthal,25.8072,66.6219,83.59,82,51,5.17,PK,1627177639
Carutapera,-1.195,-46.02,74.07,92,91,2.86,BR,1627177639
Khatanga,71.9667,102.5,60.1,47,85,22.55,RU,1627177640
Sawtell,-30.3833,153.1,68.02,33,2,4.61,AU,1627177640
Boddam,57.4667,-1.7833,51.71,89,3,9.01,GB,1627177640
Alofi,-19.0595,-169.9187,82.29,74,14,8.05,NU,1627177641
Bathsheba,13.2167,-59.5167,79.41,83,40,4.61,BB,1627177641
Muros,42.7762,-9.0603,63.23,93,86,3.71,ES,1627177641
Katsuura,35.1333,140.3,87.91,69,1,12.75,JP,1627177642
Fortuna,40.5982,-124.1573,61.86,85,90,1.99,US,1627177642
Abu Dhabi,24.4667,54.3667,96.91,59,77,3.44,AE,1627177643
Tuatapere,-46.1333,167.6833,50.83,63,100,7.27,NZ,1627177643
Bredasdorp,-34.5322,20.0403,40.32,93,97,5.75,ZA,1627177643
Avarua,-21.2078,-159.775,78.85,65,20,11.5,CK,1627177644
Masuguru,-11.3667,38.4167,65.79,54,3,9.44,TZ,1627177644
Kabinda,-6.1333,24.4833,65.14,40,6,5.28,CD,1627177645
La Macarena,2.1837,-73.7849,71.15,88,100,0.78,CO,1627177645
Kruisfontein,-34.0033,24.7314,46.51,39,14,8.88,ZA,1627177646
Kalmunai,7.4167,81.8167,81.01,72,100,9.57,LK,1627177646
Doka,13.5167,35.7667,67.93,98,100,6.15,SD,1627177646
Venado Tuerto,-33.7456,-61.9688,52.79,94,98,6.93,AR,1627177647
Hīt,33.6416,42.8251,91.69,26,0,8.55,IQ,1627177647
Osa,57.2829,55.4567,50.61,79,2,3.58,RU,1627177648
Faya,18.3851,42.4509,64.51,79,52,3.8,SA,1627177648
Province of Mantua,45.1667,10.7833,76.15,83,16,6.78,IT,1627177648
Cidreira,-30.1811,-50.2056,61.3,78,24,7.61,BR,1627177649
Warburg,51.5,9.1667,63.23,94,10,5.1,DE,1627177649
Yar-Sale,66.8333,70.8333,57.83,75,6,11.95,RU,1627177649
Hearst,49.6835,-83.6665,66.45,97,11,5.01,CA,1627177650
Yamada,39.4667,141.95,81.39,70,31,8.9,JP,1627177650
Bekhtery,46.251,32.2927,61.23,54,0,7.23,UA,1627177651
Japura,-0.3167,102.35,83.37,64,73,5.64,ID,1627177651
Rāzole,16.4833,81.8333,82.69,76,100,8.75,IN,1627177638
São Filipe,14.8961,-24.4956,73.92,74,23,5.68,CV,1627177651
Lindsay,36.203,-119.0882,100.81,18,1,8.05,US,1627177652
Dunedin,-45.8742,170.5036,46.8,56,100,17.0,NZ,1627177652
Torbay,47.6666,-52.7314,58.57,89,90,13.8,CA,1627177653
Noumea,-22.2763,166.4572,82.38,99,2,8.37,NC,1627177653
Tumut,-35.3,148.2167,43.79,90,100,15.19,AU,1627177653
Samaná,19.2056,-69.3369,78.03,92,98,4.68,DO,1627177654
Korla,41.7597,86.1469,89.26,23,0,18.28,CN,1627177630
Rio Grande,-32.035,-52.0986,60.51,79,98,8.9,BR,1627177482
Saint Anthony,45.0205,-93.218,84.22,35,1,1.01,US,1627177517
Itarema,-2.9248,-39.9167,76.1,80,3,10.83,BR,1627177655
Port Hardy,50.6996,-127.4199,62.78,82,75,8.05,CA,1627177583
Punta de Piedra,7.6176,-71.4916,72.73,96,100,1.72,VE,1627177655
Eureka,40.8021,-124.1637,63.12,82,29,3.0,US,1627177564
Brigantine,39.4101,-74.3646,75.99,74,1,6.91,US,1627177656
Homer,59.6425,-151.5483,63.09,82,20,12.66,US,1627177464
Adré,13.4667,22.2,72.73,76,100,2.82,TD,1627177656
Nyandoma,61.669,40.1991,52.0,70,100,6.08,RU,1627177657
Hambantota,6.1241,81.1185,79.14,100,75,11.5,LK,1627177657
Prainha,-1.8,-53.48,77.99,67,100,3.11,BR,1627177658
Guanajuato City,21.0186,-101.2591,67.62,61,88,7.56,MX,1627177494
Dikson,73.5069,80.5464,37.11,98,79,8.95,RU,1627177658
Tupã,-21.9347,-50.5136,61.93,35,0,6.42,BR,1627177659
Altay,47.8667,88.1167,74.86,41,3,4.68,CN,1627177659
Tilichiki,60.4667,166.1,57.9,81,100,6.11,RU,1627177660
Marale,14.8833,-87.15,70.88,86,86,4.63,HN,1627177660
Esso,55.9333,158.7,69.44,67,94,1.36,RU,1627177661
Linfen,36.0889,111.5189,83.1,59,8,3.38,CN,1627177661
Olafsvik,64.8945,-23.7142,49.66,78,95,9.66,IS,1627177662
Bonthe,7.5264,-12.505,76.17,84,100,7.96,SL,1627177542
Khvalynsk,52.4906,48.1058,57.33,84,6,7.58,RU,1627177662
Nanortalik,60.1432,-45.2371,42.66,95,97,9.95,GL,1627177663
Sal Rei,16.1833,-22.9167,73.27,76,36,8.84,CV,1627177663
Mongu,-15.2484,23.1274,53.35,79,0,9.44,ZM,1627177663
Orlik,52.5178,99.825,66.07,66,100,0.78,RU,1627177664
Hokitika,-42.7167,170.9667,49.46,83,100,8.43,NZ,1627177664
Vredendal,-31.6683,18.5012,55.31,20,100,12.71,ZA,1627177664
Nome,64.5011,-165.4064,50.16,87,90,11.5,US,1627177665
Kīhei,20.785,-156.4656,87.82,79,40,26.46,US,1627177665
Yanta,36.2411,115.6672,87.01,60,0,5.75,CN,1627177666
Valdosta,30.8327,-83.2785,81.93,72,20,6.91,US,1627177579
Antalaha,-14.9003,50.2788,68.99,81,100,11.5,MG,1627177666
Vardø,70.3705,31.1107,46.26,85,97,25.64,NO,1627177667
Coyhaique,-45.5752,-72.0662,35.55,87,0,3.44,CL,1627177667
Maţāy,28.419,30.7792,76.26,60,0,10.16,EG,1627177668
Zhangaözen,43.3,52.8,77.95,58,7,15.7,KZ,1627177372
Finote Selam,10.7,37.2667,58.51,99,100,1.41,ET,1627177668
Chui,-33.6971,-53.4616,56.41,82,100,6.6,UY,1627177668
Carroll,39.5501,-77.0164,76.78,73,78,1.01,US,1627177669
Talnakh,69.4865,88.3972,49.1,91,100,4.85,RU,1627177669
High Rock,26.6208,-78.2833,83.1,71,8,11.03,BS,1627177670
Cibitoke Province,-2.8833,29.25,59.85,56,13,3.89,BI,1627177670
Praia,14.9215,-23.5087,75.74,69,75,6.91,CV,1627177590
The Valley,18.217,-63.0578,82.26,84,100,20.4,AI,1627177671
Kiama,-34.6833,150.8667,57.58,46,3,20.0,AU,1627177440
Qandala,11.472,49.8728,86.07,51,100,23.53,SO,1627177671
Cabo San Lucas,22.8909,-109.9124,91.81,68,51,8.99,MX,1627177392
Carnarvon,-24.8667,113.6333,62.67,58,90,11.5,AU,1627177672
Kahului,20.8947,-156.47,87.82,78,40,26.46,US,1627177672
Hârşova,44.6833,27.9333,62.08,69,0,4.16,RO,1627177672
Natal,-5.795,-35.2094,75.42,73,0,9.22,BR,1627177431
Aasiaat,68.7098,-52.8699,38.08,94,95,8.25,GL,1627177673
Henties Bay,-22.116,14.2845,67.86,26,0,12.66,NA,1627177673
Qaanaaq,77.484,-69.3632,39.13,66,100,3.76,GL,1627177674
Itapirapuã,-15.8233,-50.6133,69.84,39,0,4.61,BR,1627177674
Ribeira Grande,38.5167,-28.7,70.2,91,11,10.51,PT,1627177675
Glenwood Springs,39.5505,-107.3248,81.41,54,1,3.44,US,1627177675
Lüshunkou,38.8,121.2667,86.22,71,1,7.83,CN,1627177676
Castro,-24.7911,-50.0119,52.27,70,0,2.77,BR,1627177676
Cherskiy,68.75,161.3,56.32,54,69,6.35,RU,1627177676
Mahajanga,-15.7167,46.3167,59.02,88,0,0.0,MG,1627177677
Sivas Province,39.7916,37.0019,48.83,93,0,0.0,TR,1627177677
Manono,-7.3,27.4167,70.63,50,0,11.12,CD,1627177677
Qurayyat,31.3318,37.3428,75.38,57,0,4.61,SA,1627177678
Deputatsky,69.3,139.9,56.53,52,27,13.13,RU,1627177678
Nouakchott,18.0858,-15.9785,75.13,81,64,11.95,MR,1627177529
Ponta do Sol,32.6667,-17.1,73.0,77,0,2.82,PT,1627177679
Berlevåg,70.8578,29.0864,45.03,84,100,24.81,NO,1627177679
Havelock,34.8791,-76.9013,78.94,74,38,5.12,US,1627177528
La Ronge,55.1001,-105.2842,62.85,72,75,6.91,CA,1627177680
Palauig,15.435,119.9045,82.27,87,100,14.72,PH,1627177680
Sept-Îles,50.2001,-66.3821,61.32,93,75,3.0,CA,1627177681
Geraldton,-28.7667,114.6,61.12,82,90,8.05,AU,1627177681
Xinyang,32.1228,114.0656,82.98,79,31,8.08,CN,1627177681
Turukhansk,65.8167,87.9833,73.72,54,0,17.49,RU,1627177682
Jardim,-21.4803,-56.1381,70.48,44,0,3.56,BR,1627177682
Provideniya,64.3833,-173.3,47.89,98,100,13.06,RU,1627177682
Bose,45.4612,8.0137,69.73,98,100,4.16,IT,1627177683
Kaohsiung City,22.6163,120.3133,85.03,88,75,1.01,TW,1627177683
Lompoc,34.6391,-120.4579,79.02,76,75,14.97,US,1627177684
Walvis Bay,-22.9575,14.5053,68.09,7,0,18.41,NA,1627177684
Isla Vista,34.4133,-119.861,84.13,70,75,8.05,US,1627177685
Businga,3.3333,20.8833,70.16,94,74,1.19,CD,1627177685
Basco,20.4487,121.9702,83.35,85,100,31.54,PH,1627177685
Tual,-5.6667,132.75,80.24,74,98,9.8,ID,1627177686
Benghazi,32.1167,20.0667,78.75,72,0,13.11,LY,1627177686
Black Forest,39.0131,-104.7008,75.16,47,75,1.01,US,1627177687
Pachino,36.7186,15.0907,80.6,50,0,4.41,IT,1627177687
Longyearbyen,78.2186,15.6401,42.64,81,75,12.66,SJ,1627177687
Inhambane,-23.865,35.3833,65.26,58,100,10.85,MZ,1627177688
Custoias,41.1053,-7.321,55.11,86,83,4.03,PT,1627177688
Selma,36.5708,-119.6121,103.33,21,1,5.75,US,1627177689
Tura,25.5198,90.2201,79.0,90,89,6.58,IN,1627177689
Barcelos,41.5388,-8.6151,62.85,93,97,3.04,PT,1627177555
Moss Vale,-34.55,150.3833,50.32,56,30,17.69,AU,1627177689
Novoil'insk,51.6829,108.7143,73.83,44,0,2.24,RU,1627177690
Dossor,47.5272,52.9811,77.59,33,0,6.17,KZ,1627177690
Jalu,29.0331,21.5482,77.13,43,0,6.89,LY,1627177691
Saint-Philippe,-21.3585,55.7679,65.79,74,37,6.67,RE,1627177691
Laas,46.6166,10.7002,68.88,95,82,3.31,IT,1627177691
Rancho Palos Verdes,33.7445,-118.387,85.66,81,40,4.0,US,1627177692
Anadyr,64.75,177.4833,59.5,100,90,4.0,RU,1627177692
Mahon,39.8885,4.2658,77.56,73,0,19.57,ES,1627177692
Beringovskiy,63.05,179.3167,55.56,77,100,6.55,RU,1627177693
Dryden,49.7833,-92.7503,75.49,46,40,5.75,CA,1627177693
Port Blair,11.6667,92.75,82.44,89,75,11.5,IN,1627177694
Corinth,37.9407,22.9573,79.9,49,0,2.82,GR,1627177694
Port-Cartier,50.0334,-66.8654,61.02,94,100,3.69,CA,1627177694
Eydhafushi,5.1033,73.0708,82.08,75,100,11.3,MV,1627177695
Aransas Pass,27.9095,-97.15,84.97,83,1,11.01,US,1627177695
Krasnogorodskoye,56.8357,28.2822,52.25,75,2,3.29,RU,1627177695
Hornepayne,49.2138,-84.7705,65.46,57,5,6.93,CA,1627177696
Paarl,-33.7338,18.9752,50.18,34,100,5.19,ZA,1627177697
Togur,58.3631,82.8265,72.25,60,50,3.51,RU,1627177697
Nuuk,64.1835,-51.7216,41.61,87,92,8.05,GL,1627177697
Kaitangata,-46.2817,169.8464,49.93,61,94,9.44,NZ,1627177698
Boueni,-12.9025,45.0761,76.98,66,1,20.4,YT,1627177598
Ilulissat,69.2167,-51.1,42.82,87,90,5.75,GL,1627177698
Dimāpur,25.9,93.7333,81.0,84,100,3.22,IN,1627177419
Mariehamn,60.0973,19.9348,49.86,100,82,1.14,AX,1627177699
Aripuanã,-9.1667,-60.6333,75.83,50,30,1.32,BR,1627177699
Quatre Cocos,-20.2078,57.7625,69.91,74,71,15.55,MU,1627177699
Joshīmath,30.5667,79.5667,74.73,86,100,1.5,IN,1627177700
Avera,33.194,-82.5271,82.53,59,96,6.24,US,1627177700
Touros,-5.1989,-35.4608,74.3,80,0,15.28,BR,1627177701
Marakkanam,12.2,79.95,85.35,64,100,14.5,IN,1627177701
Sangar,63.9242,127.4739,76.5,40,2,11.68,RU,1627177701
Ulety,51.3572,112.4849,70.47,47,46,5.46,RU,1627177702
Udachny,66.4167,112.4,77.81,46,0,15.41,RU,1627177702
Sobolevo,54.4299,31.8996,52.72,87,0,4.41,RU,1627177703
San Patricio,28.017,-97.5169,88.21,71,2,12.62,US,1627177703
Madawaska,47.3561,-68.3288,70.9,74,1,1.14,US,1627177703
Warrington,53.3925,-2.5802,60.8,80,100,1.01,GB,1627177604
Cerqueira César,-23.0356,-49.1661,58.3,35,0,5.32,BR,1627177704
Aklavik,68.2191,-135.0107,72.43,52,83,12.21,CA,1627177533
Severka,56.8688,60.3015,56.64,93,89,8.25,RU,1627177705
Vostok,46.4856,135.8833,91.56,40,65,4.76,RU,1627177705
Klaksvík,62.2266,-6.589,50.92,97,54,9.4,FO,1627177705
Khuzdar,27.7384,66.6434,82.27,47,60,3.74,PK,1627177460
Kempele,64.9131,25.5034,57.22,94,0,5.75,FI,1627177706
Santa Cruz Cabrália,-16.2781,-39.0247,73.63,68,40,6.91,BR,1627177706
Adwa,14.1646,38.8955,59.61,94,93,4.16,ET,1627177707
Conceição do Araguaia,-8.2578,-49.2647,77.13,57,0,3.44,BR,1627177621
Hofn,64.2539,-15.2082,51.96,85,5,9.8,IS,1627177539
Mangan,27.5167,88.5333,79.57,84,89,1.52,IN,1627177707
Celestún,20.8667,-90.4,80.96,81,49,13.56,MX,1627177708
Cerritos,33.8583,-118.0648,88.48,72,1,5.99,US,1627177629
Quixadá,-4.9714,-39.0153,70.83,62,6,2.17,BR,1627177708
Krasnyy Yar,46.5331,48.3456,69.73,34,0,3.87,RU,1627177709
Gravdal,68.1214,13.5031,52.03,97,100,10.29,NO,1627177709
Sioux Lookout,50.1001,-91.917,75.58,53,75,5.75,CA,1627177709
La Serena,-29.9078,-71.2542,51.31,93,0,4.61,CL,1627177710
Río Gallegos,-51.6226,-69.2181,37.45,70,75,6.91,AR,1627177679
City of San Pedro,14.35,121.0167,81.16,93,90,2.3,PH,1627177710
Gravelbourg,49.8834,-106.5512,80.87,29,1,7.27,CA,1627177711
São José da Coroa Grande,-8.8978,-35.1478,74.57,83,91,16.06,BR,1627177711
Richards Bay,-28.783,32.0377,52.81,77,13,4.9,ZA,1627177712
Grindavik,63.8424,-22.4338,48.15,93,75,8.05,IS,1627177712
Iralaya,15.0,-83.2333,79.43,86,100,9.69,HN,1627177713
Calatayud,41.3535,-1.6432,75.78,63,0,2.89,ES,1627177713
Boshnyakovo,49.6333,142.1667,75.06,76,92,9.08,RU,1627177713
Kirensk,57.7853,108.1119,79.02,44,12,7.36,RU,1627177714
Ginir,7.1333,40.7,54.79,77,100,14.16,ET,1627177714
São Gabriel da Cachoeira,-0.1303,-67.0892,71.53,98,100,0.69,BR,1627177715
Chicama,-7.8447,-79.1469,64.94,80,36,3.4,PE,1627177715
Tabou,4.423,-7.3528,75.2,72,93,5.26,CI,1627177715
Kasongo-Lunda,-6.4667,16.8167,65.26,39,0,0.98,CD,1627177716
Hasaki,35.7333,140.8333,90.28,75,22,12.15,JP,1627177716
Covăsinţ,46.2,21.6,66.07,60,0,6.08,RO,1627177716
Kilindoni,-7.9139,39.6668,75.09,64,3,26.87,TZ,1627177717
Pingxiang,27.6167,113.85,87.58,64,5,2.3,CN,1627177600
Coquimbo,-29.9533,-71.3436,51.53,93,0,4.61,CL,1627177717
Kristinestad,62.2743,21.376,58.91,86,41,6.71,FI,1627177718
Labuhan,-6.8844,112.2051,81.28,66,3,5.95,ID,1627177541
Pombas,17.1503,-25.0201,73.18,71,57,8.16,CV,1627177718
Raudeberg,61.9875,5.1352,59.2,90,19,5.88,NO,1627177719
Shymkent,42.3,69.6,88.05,13,0,3.38,KZ,1627177719
Sciacca,37.5082,13.0881,75.04,56,0,5.39,IT,1627177720
Laguna,38.421,-121.4238,103.32,27,1,5.99,US,1627177720
Flin Flon,54.7682,-101.865,63.36,77,43,7.63,CA,1627177619
Salalah,17.0151,54.0924,77.09,100,90,8.05,OM,1627177721
Araouane,18.9048,-3.5265,88.32,43,25,13.87,ML,1627177721
Souillac,-20.5167,57.5167,70.18,78,40,8.05,MU,1627177721
Port Pirie,-33.1833,138.0167,57.29,65,10,16.24,AU,1627177722
Bahār,34.9072,48.4414,72.68,28,6,3.18,IR,1627177722
Te Anau,-45.4167,167.7167,53.87,67,100,5.82,NZ,1627177723
Lüderitz,-26.6481,15.1594,63.66,21,19,11.9,NA,1627177723
Bizhbulyak,53.6967,54.2642,56.26,86,39,7.0,RU,1627177723
Chilca,-12.5211,-76.7372,62.76,88,98,8.59,PE,1627177724
Khorosheve,49.8528,36.2195,66.52,82,0,4.0,UA,1627177724
Kailua,21.4022,-157.7394,91.38,70,75,14.97,US,1627177600
Colares,38.7992,-9.4469,67.28,78,39,5.01,PT,1627177725
Chennai,13.0878,80.2785,85.98,70,40,4.61,IN,1627177637
Chuguyevka,44.1653,133.8633,92.82,47,56,4.5,RU,1627177725
Troy,42.6056,-83.1499,74.88,94,90,1.01,US,1627177725
Athens,37.9795,23.7162,78.17,54,0,1.99,GR,1627177598
Tungor,53.3808,142.9564,85.15,57,94,7.99,RU,1627177726
Buraidah,26.326,43.975,90.05,16,11,4.94,SA,1627177727
Uruçuí,-7.2294,-44.5561,78.58,45,0,10.07,BR,1627177727
Harper,4.375,-7.7169,75.16,74,90,6.08,LR,1627177727
São Francisco de Assis,-29.5503,-55.1311,66.25,65,35,7.83,BR,1627177728
Lakes Entrance,-37.8811,147.981,53.58,47,39,20.45,AU,1627177728
Soyo,-6.1349,12.3689,70.16,93,10,4.65,AO,1627177729
Innisfail,-17.5333,146.0333,82.87,49,91,11.77,AU,1627177729
Mbandaka,0.0487,18.2603,73.96,63,100,3.69,CD,1627177729
Tynne,50.6015,26.1849,60.75,70,29,4.34,UA,1627177730
Kaiyuan,23.6977,103.3037,66.9,96,100,3.15,CN,1627177730
Nurlat,54.4277,50.8051,51.55,73,0,5.59,RU,1627177730
Misratah,32.3754,15.0925,79.16,66,0,5.91,LY,1627177731
Marsh Harbour,26.5412,-77.0636,80.38,69,100,6.64,BS,1627177731
Sainte-Marie,-20.8968,55.5496,66.36,68,40,6.91,RE,1627177732
San Quintín,30.4833,-115.95,69.01,82,100,7.99,MX,1627177732
Mopipi,-21.1833,24.8833,48.34,57,0,14.92,BW,1627177732
Skibbereen,51.55,-9.2667,62.4,94,10,4.41,IE,1627177733
Zhigansk,66.7697,123.3711,66.11,52,14,16.93,RU,1627177542
Biltine,14.5333,20.9167,82.83,57,100,16.73,TD,1627177733
Plettenberg Bay,-34.0527,23.3716,52.18,38,7,6.08,ZA,1627177549
Port Lincoln,-34.7333,135.8667,58.69,75,62,26.87,AU,1627177516
Egvekinot,66.3167,-179.1667,50.0,85,100,4.56,RU,1627177734
Victor Harbor,-35.5667,138.6167,56.46,89,72,1.99,AU,1627177734
Waycross,31.2136,-82.354,81.07,86,1,5.75,US,1627177687
Arrondissement de Cognac,45.5,-0.25,64.0,94,40,9.22,FR,1627177735
Kudahuvadhoo,2.6708,72.8944,81.95,77,100,7.2,MV,1627177735
Bud,39.447,-86.1758,80.69,88,8,7.38,US,1627177736
Wad Medani,14.4012,33.5199,75.47,78,100,1.32,SD,1627177736
Sisimiut,66.9395,-53.6735,40.91,92,100,5.41,GL,1627177737
Ust'-Omchug,61.15,149.6333,59.29,78,100,9.95,RU,1627177737
Tandil,-37.3217,-59.1332,51.31,98,100,5.99,AR,1627177737
Saint-Pierre,-21.3393,55.4781,65.88,82,75,9.22,RE,1627177738
Malindi,-3.2175,40.1191,75.69,73,0,22.91,KE,1627177738
Murmino,54.6036,40.0544,57.33,66,99,1.59,RU,1627177738
Gibara,21.1097,-76.1317,81.72,86,64,7.72,CU,1627177739
Arkhangelsk,64.5401,40.5433,50.11,81,40,4.47,RU,1627177739
Xinzhou,38.4092,112.7333,82.13,55,98,6.62,CN,1627177740
Santa Fe,-31.6333,-60.7,64.02,74,86,4.0,AR,1627177740
Manjakandriana,-18.9167,47.8,53.29,95,100,8.81,MG,1627177740
Senneterre,48.3835,-77.2328,61.02,96,100,14.81,CA,1627177741
San Cristobal,7.7669,-72.225,73.58,99,100,3.83,VE,1627177533
Valmiera,57.5411,25.4275,52.41,84,2,1.39,LV,1627177742
Dzaoudzi,-12.7887,45.2699,76.89,73,20,25.32,YT,1627177742
Ankazoabo,-22.2833,44.5167,55.08,76,1,11.77,MG,1627177742
Yerbogachën,61.2767,108.0108,76.84,42,59,5.75,RU,1627177559
Røros,62.5747,11.3842,57.31,76,96,2.55,NO,1627177743
Kollam,8.8833,76.6,76.87,88,72,8.05,IN,1627177743
Broken Hill,-31.95,141.4333,51.51,71,19,18.41,AU,1627177593
Lata,40.1629,-8.3327,60.06,95,19,1.36,PT,1627177744
Yarega,63.4354,53.5765,44.98,95,100,8.59,RU,1627177745
Miquelon,47.0975,-56.3814,57.2,88,21,9.4,PM,1627177745
Constitución,-35.3333,-72.4167,51.53,88,100,15.66,CL,1627177745
Elizabeth City,36.2946,-76.2511,77.05,73,1,5.75,US,1627177746
Merauke,-8.4667,140.3333,78.21,83,100,5.93,ID,1627177746
Half Moon Bay,37.4636,-122.4286,87.75,69,40,20.71,US,1627177716
Muli,2.9167,73.5667,81.19,78,96,4.68,MV,1627177747
Manokwari,-0.8667,134.0833,81.14,73,100,8.41,ID,1627177747
Kalemie,-5.9475,29.1947,71.2,66,0,15.03,CD,1627177748
Jalalpur Jattan,32.6374,74.2183,85.87,84,40,0.0,PK,1627177748
Skowhegan,44.7651,-69.7192,66.76,85,59,4.29,US,1627177749
Baykit,61.67,96.37,80.28,45,7,3.36,RU,1627177749
Limbang,4.75,115.0,87.91,60,43,0.67,MY,1627177749
Renqiu,38.6989,116.0936,88.32,59,35,7.81,CN,1627177750
Uyskoye,54.3775,60.0047,60.94,70,61,4.09,RU,1627177750
Aguadulce,8.25,-80.55,74.88,96,100,8.12,PA,1627177751
Calabozo,8.9242,-67.4293,74.17,95,100,0.85,VE,1627177751
Nizhnyaya Poyma,56.1622,97.1933,74.26,49,0,9.28,RU,1627177751
San Felipe,10.3399,-68.7425,74.88,88,100,3.04,VE,1627177752
Muroto-misakicho,33.2833,134.15,86.04,79,100,13.24,JP,1627177752
Nanga Eboko,4.6833,12.3667,66.56,94,94,5.19,CM,1627177752
Ţahţā,26.7693,31.5021,79.12,32,0,7.07,EG,1627177753
Semey,50.4111,80.2275,75.42,57,0,6.71,KZ,1627177753
Shimoda,34.6667,138.95,82.76,64,1,10.58,JP,1627177754
Krasnosel'kup,65.7,82.4667,67.44,80,100,11.41,RU,1627177754
Aksu,41.1231,80.2644,87.42,31,0,2.64,CN,1627177754
Salinas,36.6777,-121.6555,84.87,71,75,14.97,US,1627177755
Tete,-16.1564,33.5867,64.49,63,40,3.44,MZ,1627177755
San Luis,-33.295,-66.3356,49.32,61,80,9.57,AR,1627177755
San Vicente,-26.6167,-54.1333,63.9,55,42,5.26,AR,1627177756
Sitka,57.0531,-135.33,57.09,82,75,12.66,US,1627177756
Progreso,21.2833,-89.6667,84.31,85,99,8.95,MX,1627177757
Uyemskiy,64.4743,40.8524,50.05,81,40,4.47,RU,1627177757
Omsukchan,62.5333,155.8,56.68,79,100,6.87,RU,1627177757
Nha Trang,12.25,109.1833,91.4,53,69,0.09,VN,1627177554
San Ramon,37.7799,-121.978,95.43,51,1,13.8,US,1627177758
Coahuayana Viejo,18.7333,-103.6833,80.24,90,65,3.02,MX,1627177758
Ambon City,-3.6954,128.1814,89.74,66,40,2.3,ID,1627177759
Ampanihy,-24.7,44.75,59.61,60,80,11.61,MG,1627177759
Spring Valley,36.108,-115.245,99.79,27,75,17.27,US,1627177382
Abalak,58.1286,68.5944,57.54,98,100,4.41,RU,1627177760
Djenné,13.9061,-4.5533,85.06,54,100,8.16,ML,1627177760
Santa Isabel Rio Negro,-0.4139,-65.0192,73.2,98,100,1.79,BR,1627177760
Ola,59.5833,151.2833,55.67,93,99,7.36,RU,1627177761
Grand Gaube,-20.0064,57.6608,70.2,78,13,5.01,MU,1627177548
Binga,-17.6203,27.3414,59.88,47,77,7.87,ZW,1627177762
Hualmay,-11.0964,-77.6139,62.85,84,58,7.63,PE,1627177762
Borskoye,53.0333,51.7167,57.02,79,5,8.14,RU,1627177762
Marawi,7.9986,124.2928,82.45,56,16,6.8,PH,1627177763
Whyalla,-33.0333,137.5833,57.09,67,12,16.11,AU,1627177763
Maumere,-8.6199,122.2111,81.5,62,19,3.0,ID,1627177764
Barinitas,8.7622,-70.4111,72.88,97,100,1.16,VE,1627177764
Verkh-Usugli,52.7,115.1667,57.85,79,100,6.67,RU,1627177764
Esperance,-33.8667,121.9,55.24,66,100,18.05,AU,1627177765
Marzuq,14.4,46.4667,71.85,83,91,8.77,YE,1627177765
Walla Walla,46.0646,-118.343,98.51,24,1,4.0,US,1627177534
Arkadelphia,34.1209,-93.0538,90.0,84,1,0.0,US,1627177766
Kindu,-2.95,25.95,75.31,52,86,2.24,CD,1627177766
Thinadhoo,0.5333,72.9333,82.22,77,100,11.27,MV,1627177574
Kondinskoye,59.6481,67.41,62.06,78,100,3.06,RU,1627177767
Muisne,0.6,-80.0333,74.34,83,99,6.98,EC,1627177767
Adrar,20.5022,-10.0711,91.24,21,95,9.6,MR,1627177569
Mulanje,-16.0316,35.5,54.12,95,27,7.05,MW,1627177768
Lipin Bor,60.2622,37.9763,55.62,65,100,7.27,RU,1627177768
Saint Lawrence,36.0553,14.204,75.85,84,0,2.89,MT,1627177768
Takoradze,4.8845,-1.7554,73.35,85,9,7.96,GH,1627177769
Atessa,42.0693,14.4511,77.02,54,32,6.26,IT,1627177769
Gävle,60.6745,17.1417,57.0,79,71,5.79,SE,1627177769
Asău,46.4333,26.4,63.75,86,3,3.02,RO,1627177770
Wagga Wagga,-35.1167,147.3667,47.61,87,90,14.97,AU,1627177770
Inongo,-1.95,18.2667,67.59,66,82,3.51,CD,1627177770
Manzhouli,49.6,117.4333,69.17,57,31,14.2,CN,1627177552
Serra Negra,-22.6122,-46.7006,61.11,48,0,4.83,BR,1627177718
Bubaque,11.2833,-15.8333,78.08,86,100,16.31,GW,1627177771
Kashgar,39.4547,75.9797,81.61,28,20,6.71,CN,1627177772
Judaberg,59.1659,5.8732,62.15,94,0,4.59,NO,1627177772
Klyuchi,52.2667,79.1667,75.0,58,1,5.77,RU,1627177773
Iskateley,67.6803,53.1512,46.17,90,100,11.59,RU,1627177773
Ōhara,35.25,140.3833,87.75,69,2,12.1,JP,1627177773
Ardabil,38.2498,48.2933,64.29,94,100,6.91,IR,1627177774
Gaya,24.7833,85.0,82.31,89,20,4.61,IN,1627177774
Windhoek,-22.5594,17.0832,46.6,25,4,8.05,NA,1627177645
Tikrit,34.6071,43.6782,92.64,21,0,10.33,IQ,1627177775
Farafangana,-22.8167,47.8333,65.17,75,100,13.82,MG,1627177754
Yulara,-25.2406,130.9889,60.64,33,64,9.22,AU,1627177598
Pervomayskoye,43.919,46.7102,71.85,77,92,3.31,RU,1627177776
Tucumcari,35.1717,-103.725,91.24,25,1,9.22,US,1627177776
Yangi Marg`ilon,40.4272,71.7189,83.12,32,0,2.3,UZ,1627177776
Bazarnyy Syzgan,53.7512,46.7535,51.51,82,0,3.6,RU,1627177777
Baturaja,-4.1333,104.1667,81.9,72,2,3.51,ID,1627177777
Punta Alta,-38.8759,-62.0736,49.19,60,99,8.68,AR,1627177777
Dingle,10.9995,122.6711,85.64,71,73,18.19,PH,1627177778
Laguna de Perlas,12.3429,-83.6712,78.48,89,100,10.49,NI,1627177778
Novikovo,51.1537,37.8879,57.51,78,0,3.71,RU,1627177779
Kavaratti,10.5669,72.642,82.0,78,93,21.05,IN,1627177779
San Miguel de Tucumán,-26.8241,-65.2226,60.8,63,40,10.36,AR,1627177779
Mogoytuy,51.2833,114.9167,64.98,69,96,7.25,RU,1627177780
Poum,-20.2333,164.0167,73.69,74,23,4.29,NC,1627177780
Lubliniec,50.669,18.6844,68.41,72,20,5.57,PL,1627177780
Londoko,49.0333,131.9833,79.29,67,100,3.15,RU,1627177781
Verkhnyaya Sysert’,56.4372,60.75,57.0,89,59,8.12,RU,1627177781
Svetlaya,46.5389,138.3297,77.67,77,74,10.16,RU,1627177782
Rudnogorsk,57.2639,103.7519,76.89,43,46,4.83,RU,1627177782
Alvand,36.3187,49.1678,60.12,94,39,6.24,IR,1627177782
Tezu,27.9167,96.1667,80.49,89,95,1.52,IN,1627177783
Novi Pazar,43.1367,20.5122,58.41,83,7,2.3,RS,1627177783
Magdagachi,53.45,125.8,72.07,76,7,4.0,RU,1627177783
Atikokan,48.7555,-91.6216,72.16,41,0,7.78,CA,1627177784
Mezhova,48.2532,36.7347,62.64,63,0,4.18,UA,1627177784
Saint-Joseph,-21.3667,55.6167,64.78,73,20,8.34,RE,1627177785
Ban Nahin,18.2418,104.2122,75.47,99,100,2.19,LA,1627177785
Valparaíso,-33.0393,-71.6273,53.47,82,75,4.61,CL,1627177743
Karratha,-20.7377,116.8463,76.95,34,58,10.96,AU,1627177785
